{
  "schemaVersion": 1,
  "circuits": [
    {
      "id": "ae-2009",
      "name": "Yas Marina Circuit",
      "shortName": "Yas Marina",
      "country": "United Arab Emirates",
      "lat": 24.470903,
      "lon": 54.605562,
      "type": "permanent",
      "hasEnvironment": true,
      "hasTerrain": true
    },
    {
      "id": "at-1969",
      "name": "Red Bull Ring",
      "shortName": "Spielberg",
      "country": "Austria",
      "lat": 47.222836,
      "lon": 14.7623585,
      "type": "permanent",
      "hasEnvironment": true,
      "hasTerrain": true
    },
    {
      "id": "au-1953",
      "name": "Albert Park Circuit",
      "shortName": "Melbourne",
      "country": "Australia",
      "lat": -37.8459655,
      "lon": 144.970364,
      "type": "street",
      "hasEnvironment": true,
      "hasTerrain": true
    },
    {
      "id": "az-2016",
      "name": "Baku City Circuit",
      "shortName": "Baku",
      "country": "Azerbaijan",
      "lat": 40.3693935,
      "lon": 49.843058,
      "type": "street",
      "hasEnvironment": true,
      "hasTerrain": true
    },
    {
      "id": "be-1925",
      "name": "Circuit de Spa-Francorchamps",
      "shortName": "Spa",
      "country": "Belgium",
      "lat": 50.4369475,
      "lon": 5.968581,
      "type": "permanent",
      "hasEnvironment": true,
      "hasTerrain": true
    },
    {
      "id": "bh-2002",
      "name": "Bahrain International Circuit",
      "shortName": "Bahrain",
      "country": "Bahrain",
      "lat": 26.0314855,
      "lon": 50.5143325,
      "type": "permanent",
      "hasEnvironment": true,
      "hasTerrain": true
    },
    {
      "id": "br-1940",
      "name": "Autodromo Jose Carlos Pace",
      "shortName": "Interlagos",
      "country": "Brazil",
      "lat": -23.701691,
      "lon": -46.6972845,
      "type": "permanent",
      "hasEnvironment": true,
      "hasTerrain": true
    },
    {
      "id": "ca-1978",
      "name": "Circuit Gilles Villeneuve",
      "shortName": "Montreal",
      "country": "Canada",
      "lat": 45.505679,
      "lon": -73.5259445,
      "type": "street",
      "hasEnvironment": true,
      "hasTerrain": true
    },
    {
      "id": "cn-2004",
      "name": "Shanghai International Circuit",
      "shortName": "Shanghai",
      "country": "China",
      "lat": 31.340655,
      "lon": 121.2214075,
      "type": "permanent",
      "hasEnvironment": true,
      "hasTerrain": true
    },
    {
      "id": "de-1927",
      "name": "Nurburgring",
      "shortName": "Nurburgring",
      "country": "Germany",
      "lat": 50.3308295,
      "lon": 6.94206,
      "type": "permanent",
      "hasEnvironment": true,
      "hasTerrain": true
    },
    {
      "id": "de-1932",
      "name": "Hockenheimring",
      "shortName": "Hockenheim",
      "country": "Germany",
      "lat": 49.329716,
      "lon": 8.5742615,
      "type": "permanent",
      "hasEnvironment": true,
      "hasTerrain": true
    },
    {
      "id": "es-1991",
      "name": "Circuit de Barcelona-Catalunya",
      "shortName": "Barcelona",
      "country": "Spain",
      "lat": 41.5694695,
      "lon": 2.2579015,
      "type": "permanent",
      "hasEnvironment": true,
      "hasTerrain": true
    },
    {
      "id": "fr-1969",
      "name": "Circuit Paul Ricard",
      "shortName": "Paul Ricard",
      "country": "France",
      "lat": 43.25284,
      "lon": 5.790946,
      "type": "permanent",
      "hasEnvironment": true,
      "hasTerrain": true
    },
    {
      "id": "gb-1948",
      "name": "Silverstone Circuit",
      "shortName": "Silverstone",
      "country": "United Kingdom",
      "lat": 52.0712245,
      "lon": -1.016775,
      "type": "permanent",
      "hasEnvironment": true,
      "hasTerrain": true
    },
    {
      "id": "hu-1986",
      "name": "Hungaroring",
      "shortName": "Hungaroring",
      "country": "Hungary",
      "lat": 47.5830225,
      "lon": 19.2494675,
      "type": "permanent",
      "hasEnvironment": true,
      "hasTerrain": true
    },
    {
      "id": "it-1914",
      "name": "Mugello Circuit",
      "shortName": "Mugello",
      "country": "Italy",
      "lat": 43.9974045,
      "lon": 11.371522,
      "type": "permanent",
      "hasEnvironment": true,
      "hasTerrain": true
    },
    {
      "id": "it-1922",
      "name": "Autodromo Nazionale Monza",
      "shortName": "Monza",
      "country": "Italy",
      "lat": 45.621611,
      "lon": 9.2887765,
      "type": "permanent",
      "hasEnvironment": true,
      "hasTerrain": true
    },
    {
      "id": "it-1953",
      "name": "Autodromo Internazionale Enzo e Dino Ferrari",
      "shortName": "Imola",
      "country": "Italy",
      "lat": 44.340781,
      "lon": 11.7135935,
      "type": "permanent",
      "hasEnvironment": true,
      "hasTerrain": true
    },
    {
      "id": "jp-1962",
      "name": "Suzuka Circuit",
      "shortName": "Suzuka",
      "country": "Japan",
      "lat": 34.843665,
      "lon": 136.532675,
      "type": "permanent",
      "hasEnvironment": true,
      "hasTerrain": true
    },
    {
      "id": "mc-1929",
      "name": "Circuit de Monaco",
      "shortName": "Monaco",
      "country": "Monaco",
      "lat": 43.736738,
      "lon": 7.4257895,
      "type": "street",
      "hasEnvironment": true,
      "hasTerrain": true
    },
    {
      "id": "mx-1962",
      "name": "Autodromo Hermanos Rodriguez",
      "shortName": "Mexico City",
      "country": "Mexico",
      "lat": 19.401727,
      "lon": -99.0899725,
      "type": "permanent",
      "hasEnvironment": true,
      "hasTerrain": true
    },
    {
      "id": "nl-1948",
      "name": "Circuit Zandvoort",
      "shortName": "Zandvoort",
      "country": "Netherlands",
      "lat": 52.388087,
      "lon": 4.5459015,
      "type": "permanent",
      "hasEnvironment": true,
      "hasTerrain": true
    },
    {
      "id": "pt-2008",
      "name": "Autodromo Internacional do Algarve",
      "shortName": "Portimao",
      "country": "Portugal",
      "lat": 37.231278,
      "lon": -8.628213,
      "type": "permanent",
      "hasEnvironment": true,
      "hasTerrain": true
    },
    {
      "id": "qa-2004",
      "name": "Lusail International Circuit",
      "shortName": "Lusail",
      "country": "Qatar",
      "lat": 25.490475,
      "lon": 51.453725,
      "type": "permanent",
      "hasEnvironment": true,
      "hasTerrain": true
    },
    {
      "id": "ru-2014",
      "name": "Sochi Autodrom",
      "shortName": "Sochi",
      "country": "Russia",
      "lat": 43.4074555,
      "lon": 39.9587295,
      "type": "street",
      "hasEnvironment": true,
      "hasTerrain": true
    },
    {
      "id": "sa-2021",
      "name": "Jeddah Corniche Circuit",
      "shortName": "Jeddah",
      "country": "Saudi Arabia",
      "lat": 21.6377375,
      "lon": 39.103705,
      "type": "street",
      "hasEnvironment": true,
      "hasTerrain": true
    },
    {
      "id": "sg-2008",
      "name": "Marina Bay Street Circuit",
      "shortName": "Singapore",
      "country": "Singapore",
      "lat": 1.2907325,
      "lon": 103.857994,
      "type": "street",
      "hasEnvironment": true,
      "hasTerrain": true
    },
    {
      "id": "tr-2005",
      "name": "Istanbul Park",
      "shortName": "Istanbul",
      "country": "Turkey",
      "lat": 40.9571745,
      "lon": 29.408721,
      "type": "permanent",
      "hasEnvironment": true,
      "hasTerrain": true
    },
    {
      "id": "us-2012",
      "name": "Circuit of The Americas",
      "shortName": "COTA",
      "country": "United States",
      "lat": 30.134742,
      "lon": -97.6339605,
      "type": "permanent",
      "hasEnvironment": true,
      "hasTerrain": true
    },
    {
      "id": "us-2022",
      "name": "Miami International Autodrome",
      "shortName": "Miami",
      "country": "United States",
      "lat": 25.9579055,
      "lon": -80.2372735,
      "type": "street",
      "hasEnvironment": true,
      "hasTerrain": true
    },
    {
      "id": "us-2023",
      "name": "Las Vegas Strip Circuit",
      "shortName": "Las Vegas",
      "country": "United States",
      "lat": 36.116734,
      "lon": -115.166644,
      "type": "street",
      "hasEnvironment": true,
      "hasTerrain": true
    }
  ]
}
